{
  "names": [
    "directory"
  ],
  "tables": {
    "directory": {
      "columns": [
        "NAME",
        "ADDRESS",
        "LAT",
        "LNG",
        "COUNTRY",
        "STREET",
        "REGION",
        "LOCALITY"
      ],
      "rows": [
        {
          "NAME": "AnyShare Society",
          "ADDRESS": "H.C. 74 Box 4136\nMayer\nAZ 86333",
          "LAT": 34.3978054,
          "LNG": -112.2362734,
          "COUNTRY": "United States",
          "STREET": " HC 74 Box 4136",
          "REGION": "Arizona",
          "LOCALITY": "Mayer"
        },
        {
          "NAME": "Canadian Worker Co-op Federation",
          "ADDRESS": "104, 402 30 Avenue NE, Calgary, Alberta T2E 2E3",
          "LAT": 51.07979040000001,
          "LNG": -114.0545945,
          "COUNTRY": "Canada",
          "STREET": "402 30 Avenue Northeast",
          "REGION": "Alberta",
          "LOCALITY": "Calgary"
        },
        {
          "NAME": "Carla Ilten",
          "ADDRESS": "Chicago, IL",
          "LAT": 41.8781136,
          "LNG": -87.6297982,
          "COUNTRY": "United States",
          "STREET": null,
          "REGION": "Illinois",
          "LOCALITY": "Chicago"
        },
        {
          "NAME": "Carolina Common Enterprise",
          "ADDRESS": "Durham, NC",
          "LAT": 35.9940329,
          "LNG": -78.898619,
          "COUNTRY": "United States",
          "STREET": null,
          "REGION": "North Carolina",
          "LOCALITY": "Durham"
        },
        {
          "NAME": "Collaborative Agronomic Partnerships",
          "ADDRESS": "Indianapolis, IN",
          "LAT": 39.768403,
          "LNG": -86.158068,
          "COUNTRY": "United States",
          "STREET": null,
          "REGION": "Indiana",
          "LOCALITY": "Indianapolis"
        },
        {
          "NAME": "Cooperation Works!",
          "ADDRESS": "Oakland, CA",
          "LAT": 37.8043637,
          "LNG": -122.2711137,
          "COUNTRY": "United States",
          "STREET": null,
          "REGION": "California",
          "LOCALITY": "Oakland"
        },
        {
          "NAME": "Cooperative Development Institute",
          "ADDRESS": "P.O. Box 1051\nNorthampton, MA 01061-1051",
          "LAT": 42.3214031,
          "LNG": -72.6273488,
          "COUNTRY": "United States",
          "STREET": null,
          "REGION": "Massachusetts",
          "LOCALITY": "Northampton"
        },
        {
          "NAME": "Cooperative Fund of New England",
          "ADDRESS": "Amherst, MA",
          "LAT": 42.3732216,
          "LNG": -72.5198537,
          "COUNTRY": "United States",
          "STREET": null,
          "REGION": "Massachusetts",
          "LOCALITY": "Amherst"
        },
        {
          "NAME": "Cooperative Grocer Network",
          "ADDRESS": "Minneapolis, MN",
          "LAT": 44.977753,
          "LNG": -93.2650108,
          "COUNTRY": "United States",
          "STREET": null,
          "REGION": "Minnesota",
          "LOCALITY": "Minneapolis"
        },
        {
          "NAME": "Cooperative Maine",
          "ADDRESS": "Maine, US",
          "LAT": 45.253783,
          "LNG": -69.4454689,
          "COUNTRY": "United States",
          "STREET": null,
          "REGION": "Maine",
          "LOCALITY": null
        },
        {
          "NAME": "Cooperatives for a Better World",
          "ADDRESS": "670 North Commercial Street \nManchester, NH 03101",
          "LAT": 42.997698,
          "LNG": -71.46859510000002,
          "COUNTRY": "United States",
          "STREET": "670 North Commercial Street",
          "REGION": "New Hampshire",
          "LOCALITY": "Manchester"
        },
        {
          "NAME": "Cultivate.Coop",
          "ADDRESS": "PO Box 1207 Northampton, MA 01060",
          "LAT": 42.3250492,
          "LNG": -72.6411923,
          "COUNTRY": "United States",
          "STREET": null,
          "REGION": "Massachusetts",
          "LOCALITY": "Northampton"
        },
        {
          "NAME": "Devin Case-Ruchala",
          "ADDRESS": "",
          "LAT": null,
          "LNG": null,
          "COUNTRY": null,
          "STREET": null,
          "REGION": null,
          "LOCALITY": null
        },
        {
          "NAME": "Eastern Conference for Workplace Democracy",
          "ADDRESS": "East Coast, US",
          "LAT": 40.7422572,
          "LNG": -73.67423230000001,
          "COUNTRY": "United States",
          "STREET": "1807 Gilford Avenue",
          "REGION": "New York",
          "LOCALITY": "New Hyde Park"
        },
        {
          "NAME": "Food Co-op Initiative",
          "ADDRESS": "14314 Featherstone Trail\nSavage, MN 55378 ",
          "LAT": 44.744756,
          "LNG": -93.36506469999999,
          "COUNTRY": "United States",
          "STREET": "14314 Featherstone Trail",
          "REGION": "Minnesota",
          "LOCALITY": "Savage"
        },
        {
          "NAME": "Grassroots Economic Organizing",
          "ADDRESS": "US",
          "LAT": 37.09024,
          "LNG": -95.712891,
          "COUNTRY": "United States",
          "STREET": null,
          "REGION": null,
          "LOCALITY": null
        },
        {
          "NAME": "hOurworld",
          "ADDRESS": "US",
          "LAT": 37.09024,
          "LNG": -95.712891,
          "COUNTRY": "United States",
          "STREET": null,
          "REGION": null,
          "LOCALITY": null
        },
        {
          "NAME": "Julia Stantoznik",
          "ADDRESS": "Minneapolis, MN",
          "LAT": 44.977753,
          "LNG": -93.2650108,
          "COUNTRY": "United States",
          "STREET": null,
          "REGION": "Minnesota",
          "LOCALITY": "Minneapolis"
        },
        {
          "NAME": "Keystone Development Center, Inc.",
          "ADDRESS": "PO Box 667\nEphrata\nPA 17522",
          "LAT": 40.1798165,
          "LNG": -76.17883909999999,
          "COUNTRY": "United States",
          "STREET": null,
          "REGION": "Pennsylvania",
          "LOCALITY": "Ephrata"
        },
        {
          "NAME": "Manitoba Cooperative Association",
          "ADDRESS": "400 \u2013 317 Donald Street\nWinnipeg, MB R3B 2H6",
          "LAT": 49.8946236,
          "LNG": -97.1436189,
          "COUNTRY": "Canada",
          "STREET": "317 Donald Street",
          "REGION": "Manitoba",
          "LOCALITY": "Winnipeg"
        },
        {
          "NAME": "New Economy Coalition",
          "ADDRESS": "Cambridge, MA",
          "LAT": 42.3736158,
          "LNG": -71.10973349999999,
          "COUNTRY": "United States",
          "STREET": null,
          "REGION": "Massachusetts",
          "LOCALITY": "Cambridge"
        },
        {
          "NAME": "New York Cooperative Network",
          "ADDRESS": "800 North Salina St, 2nd Floor\nSyracuse\nNY 13208\nUnited States",
          "LAT": 43.0617313,
          "LNG": -76.1538377,
          "COUNTRY": "United States",
          "STREET": "800 North Salina Street",
          "REGION": "New York",
          "LOCALITY": "Syracuse"
        },
        {
          "NAME": "North American Students of Co-operation",
          "ADDRESS": "1100 W Cermak Rd #514\nChicago, IL 60608 USA",
          "LAT": 41.853193,
          "LNG": -87.65353859999999,
          "COUNTRY": "United States",
          "STREET": "1100 West Cermak Road",
          "REGION": "Illinois",
          "LOCALITY": "Chicago"
        },
        {
          "NAME": "Northeast Food Knowledge Ecosystem",
          "ADDRESS": "Northeast US",
          "LAT": 43.2994285,
          "LNG": -74.21793260000001,
          "COUNTRY": "United States",
          "STREET": null,
          "REGION": null,
          "LOCALITY": null
        },
        {
          "NAME": "Northwest Cooperative Development Center",
          "ADDRESS": "1063 S Capitol Way, Suite 211\nOlympia\nWASHINGTON 98501",
          "LAT": 47.0384803,
          "LNG": -122.9012006,
          "COUNTRY": "United States",
          "STREET": "1063 Capitol Way South",
          "REGION": "Washington",
          "LOCALITY": "Olympia"
        },
        {
          "NAME": "Philadelphia Area Cooperative Alliance",
          "ADDRESS": "1315 Walnut Street Suite 320\nPhiladelphia\nPennsylvania 19107",
          "LAT": 39.9495913,
          "LNG": -75.1628901,
          "COUNTRY": "United States",
          "STREET": "1315 Walnut Street",
          "REGION": "Pennsylvania",
          "LOCALITY": "Philadelphia"
        },
        {
          "NAME": "Radu Seserman",
          "ADDRESS": "NJ",
          "LAT": 40.0583238,
          "LNG": -74.4056612,
          "COUNTRY": "United States",
          "STREET": null,
          "REGION": "New Jersey",
          "LOCALITY": null
        },
        {
          "NAME": "Rocky Mountain Farmers Union Co-op Development Center",
          "ADDRESS": "7900 East Union Avenue\nSuite 200\nDenver\nColorado 80237",
          "LAT": 39.62775,
          "LNG": -104.8961321,
          "COUNTRY": "United States",
          "STREET": "7900 East Union Avenue",
          "REGION": "Colorado",
          "LOCALITY": "Denver"
        },
        {
          "NAME": "Sarapis Foundation",
          "ADDRESS": "134 Spring St, #302\nNew York, NY 10012",
          "LAT": 40.723895,
          "LNG": -74.00091139999999,
          "COUNTRY": "United States",
          "STREET": "134 Spring Street",
          "REGION": "New York",
          "LOCALITY": "New York"
        },
        {
          "NAME": "Shareable and the Sharing Cities Network",
          "ADDRESS": "487 Central Ave\nMountain View\nCA 94134",
          "LAT": 37.396307,
          "LNG": -122.073636,
          "COUNTRY": "United States",
          "STREET": "487 Central Avenue",
          "REGION": "California",
          "LOCALITY": "Mountain View"
        },
        {
          "NAME": "Solidarity Economy Network",
          "ADDRESS": "PO Box 785\nAmherst\nMassachusetts 01004",
          "LAT": 42.3761193,
          "LNG": -72.5324102,
          "COUNTRY": "United States",
          "STREET": null,
          "REGION": "Massachusetts",
          "LOCALITY": "Amherst"
        },
        {
          "NAME": "Solidarity NYC",
          "ADDRESS": "New York, NY",
          "LAT": 40.7127837,
          "LNG": -74.0059413,
          "COUNTRY": "United States",
          "STREET": null,
          "REGION": "New York",
          "LOCALITY": "New York"
        },
        {
          "NAME": "Solidarity Piedmont",
          "ADDRESS": "Durham, NC",
          "LAT": 35.9940329,
          "LNG": -78.898619,
          "COUNTRY": "United States",
          "STREET": null,
          "REGION": "North Carolina",
          "LOCALITY": "Durham"
        },
        {
          "NAME": "Solidarity Research Center",
          "ADDRESS": "332 Douglas Street\nLos Angeles\nCA 90026",
          "LAT": 34.065504,
          "LNG": -118.2574664,
          "COUNTRY": "United States",
          "STREET": "332 Douglas Street",
          "REGION": "California",
          "LOCALITY": "Los Angeles"
        },
        {
          "NAME": "Tiny.Coop",
          "ADDRESS": "UK",
          "LAT": 55.378051,
          "LNG": -3.435973,
          "COUNTRY": "United Kingdom",
          "STREET": null,
          "REGION": null,
          "LOCALITY": null
        },
        {
          "NAME": "US Federation of Worker Co-ops",
          "ADDRESS": "1904 Franklin Street, #400 \nOakland, CA 94612",
          "LAT": 37.8073568,
          "LNG": -122.2674248,
          "COUNTRY": "United States",
          "STREET": "1904 Franklin Street",
          "REGION": "California",
          "LOCALITY": "Oakland"
        },
        {
          "NAME": "Vermont Employee Ownership Center",
          "ADDRESS": "PO Box 546\nBurlington\nVermont 05402",
          "LAT": 44.4799999,
          "LNG": -73.2099999,
          "COUNTRY": "United States",
          "STREET": null,
          "REGION": "Vermont",
          "LOCALITY": "Burlington"
        },
        {
          "NAME": "Worcester Solidarity and Green Economy (SAGE) Alliance",
          "ADDRESS": "4 King St\nWorcester\nMA 01610",
          "LAT": 42.25566730000001,
          "LNG": -71.8134513,
          "COUNTRY": "United States",
          "STREET": "4 King Street",
          "REGION": "Massachusetts",
          "LOCALITY": "Worcester"
        },
        {
          "NAME": "yunity.org",
          "ADDRESS": "Share and Care e.V.\nEmmerweg 9\n91056 Erlangen\nGERMANY",
          "LAT": null,
          "LNG": null,
          "COUNTRY": null,
          "STREET": null,
          "REGION": null,
          "LOCALITY": null
        }
      ]
    }
  }
}